$IIHDT,323.6,T*26
$GNGGA,165544.00,6016.83353,N,02217.19127,E,1,12,0.51,2.4,M,18.6,M,,*4E
$GNDTM,W84,,0.0,N,0.0,E,0.0,W84*71
$GNRMC,165544.00,A,6016.83272,N,02217.19556,E,0.002,,150126,9.20,E,D,V*40
$GNVTG,,T,,M,0.002,N,0.004,K,D*3E
$GNGNS,165544.00,6016.83272,N,02217.19556,E,DDDDNN,32,0.48,7.3,18.6,,,V*16
$GNGGA,165544.00,6016.83272,N,02217.19556,E,2,12,0.48,7.3,M,18.6,M,,*47
$GNGSA,A,3,10,15,27,07,29,16,26,18,05,23,,,0.89,0.48,0.75,1*0C
$GNGSA,A,3,85,86,76,87,69,77,78,,,,,,0.89,0.48,0.75,2*00
$GNGSA,A,3,05,27,21,15,09,23,13,,,,,,0.89,0.48,0.75,3*01
$GNGSA,A,3,44,24,25,08,13,38,35,05,,,,,0.89,0.48,0.75,4*08
$GNGSA,A,3,,,,,,,,,,,,,0.89,0.48,0.75,5*0A
$GPGSV,4,1,13,05,16,036,32,07,15,338,40,10,11,177,39,15,16,086,31,1*6F
$GPGSV,4,2,13,16,57,249,44,18,71,098,44,23,40,150,46,26,37,203,43,1*61
$GPGSV,4,3,13,27,40,281,35,29,12,110,27,36,22,179,43,40,16,144,29,1*64
$GPGSV,4,4,13,49,20,200,40,1*5F
$GPGSV,1,1,04,08,10,289,,13,12,055,,30,03,003,,41,05,116,,0*6F
$GLGSV,3,1,09,69,22,011,32,70,34,068,44,71,09,125,37,76,33,211,48,1*71
$GLGSV,3,2,09,77,52,278,41,78,17,339,40,85,25,071,39,86,86,342,47,1*7B
$GLGSV,3,3,09,87,44,259,45,1*41
$GAGSV,2,1,08,05,15,039,32,09,10,349,35,13,60,210,37,15,57,074,39,7*7E
$GAGSV,2,2,08,21,61,236,41,23,31,307,42,27,27,170,42,34,08,057,25,7*76
$GAGSV,1,1,03,03,04,086,,06,02,328,,26,11,229,,0*4E
$GBGSV,3,1,09,05,15,139,32,08,51,064,38,13,54,083,35,24,30,233,41,1*7F
$GBGSV,3,2,09,25,32,302,39,26,03,196,34,35,50,096,33,38,39,049,44,1*7D
$GBGSV,3,3,09,44,76,233,46,1*4E
$GBGSV,2,1,08,02,06,114,,12,48,256,,19,31,090,,20,24,037,,0*71
$GBGSV,2,2,08,22,09,140,,23,05,342,,34,22,262,,60,08,118,,0*75
$GQGSV,1,1,00,0*64
$GNGLL,6016.83272,N,02217.19556,E,165544.00,A,D*70
$GNGRS,165544.00,1,-1.5,-0.4,4.4,-0.3,-38.4,0.3,1.1,-0.3,-3.3,0.3,,,1,1*68
$GNGRS,165544.00,1,-1.0,1.6,-1.0,2.5,0.6,-3.4,4.4,,,,,,2,1*56
$GNGRS,165544.00,1,-4.9,0.3,-0.6,2.8,-2.6,-0.4,0.6,,,,,,3,7*79
$GNGRS,165544.00,1,-1.7,1.4,-0.3,-1.5,-0.1,0.0,1.8,-1.1,,,,,4,1*73
$GNGRS,165544.00,1,,,,,,,,,,,,,5,0*52
$GNGST,165544.00,11,0.94,0.81,99,0.33,0.38,0.75*73
$GNZDA,165544.00,15,01,2026,00,00*7C
$GNGBS,165544.00,0.3,0.4,0.7,,,,,,*58
$GNTHS,,A*07
$GNVLW,,N,,N,0.000,N,0.000,N*44
$IIHDT,323.5,T*25
!AIVDO,1,1,,,B3KK;SP000IPD4`Wp`wQ2RF1h000,0*3B
$IIHDT,323.5,T*25
!AIVDM,1,1,,B,402<HTQv`Ghoc1V?VTRS42wP20S:,0*46
$IIHDT,323.5,T*25
!AIVDM,1,1,,B,D02<HTPf@B?a6DE6D0,4*58
$IIHDT,323.6,T*26
!AIVDM,1,1,,A,D02<HTPUpB?a6DE6D0,4*58
$IIHDT,323.6,T*26
$GNGGA,165545.00,6016.83353,N,02217.19130,E,1,12,0.51,2.4,M,18.6,M,,*49
$GNGBS,165545.00,0.8,0.8,1.8,,,,,,*50
$GNDTM,W84,,0.0,N,0.0,E,0.0,W84*71
$GNRMC,165545.00,A,6016.83271,N,02217.19551,E,0.007,,150126,9.20,E,D,V*40
$GNVTG,,T,,M,0.007,N,0.013,K,D*3D
$GNGNS,165545.00,6016.83271,N,02217.19551,E,DDDDNN,32,0.46,7.2,18.6,,,V*1C
$GNGGA,165545.00,6016.83271,N,02217.19551,E,2,12,0.46,7.2,M,18.6,M,,*4D
$GNGSA,A,3,10,15,27,07,29,16,26,18,05,23,,,0.87,0.46,0.73,1*0A
$GNGSA,A,3,85,86,76,87,69,77,78,,,,,,0.87,0.46,0.73,2*06
$GNGSA,A,3,05,27,21,15,09,23,13,,,,,,0.87,0.46,0.73,3*07
$GNGSA,A,3,44,24,25,08,13,38,35,05,,,,,0.87,0.46,0.73,4*0E
$GNGSA,A,3,,,,,,,,,,,,,0.87,0.46,0.73,5*0C
$GPGSV,4,1,13,05,16,036,32,07,15,338,40,10,11,177,39,15,16,086,31,1*6F
$GPGSV,4,2,13,16,57,249,44,18,71,098,44,23,40,150,46,26,37,203,43,1*61
$GPGSV,4,3,13,27,40,281,36,29,12,110,27,36,22,179,43,40,16,144,29,1*67
$GPGSV,4,4,13,49,20,200,40,1*5F
$GLGSV,3,1,09,69,22,011,33,70,34,068,44,71,09,125,37,76,33,211,48,1*70
$GLGSV,3,2,09,77,52,278,41,78,17,339,40,85,25,071,39,86,86,342,47,1*7B
$GLGSV,3,3,09,87,44,259,45,1*41
$GAGSV,2,1,08,05,15,039,32,09,10,349,35,13,60,210,37,15,57,074,39,7*7E
$GAGSV,2,2,08,21,61,236,41,23,31,307,42,27,27,170,42,34,08,057,26,7*75
$GBGSV,3,1,09,05,15,139,32,08,51,064,38,13,54,083,35,24,30,233,41,1*7F
$GBGSV,3,2,09,25,32,302,39,26,03,196,34,35,50,096,33,38,39,049,44,1*7D
$GBGSV,3,3,09,44,76,233,46,1*4E
$GQGSV,1,1,00,0*64
$GNGLL,6016.83271,N,02217.19551,E,165545.00,A,D*75
$GNGRS,165545.00,1,-1.5,-0.4,4.0,-0.3,-37.9,0.5,1.4,-0.4,-3.3,0.3,,,1,1*6B
$GNGRS,165545.00,1,-1.2,1.4,-1.0,2.6,0.8,-3.4,4.3,,,,,,2,1*5D
$GNGRS,165545.00,1,-5.2,-0.1,-1.0,3.0,-2.6,-0.4,0.4,,,,,,3,7*51
$GNGRS,165545.00,1,-1.9,1.6,0.0,-1.5,0.0,-0.1,1.9,-1.0,,,,,4,1*50
$GNGRS,165545.00,1,,,,,,,,,,,,,5,0*53
$GNGST,165545.00,12,0.94,0.81,99,0.33,0.38,0.75*71
$GNZDA,165545.00,15,01,2026,00,00*7D
$GNGBS,165545.00,0.3,0.4,0.8,,,,,,*56
$GNTHS,,A*07
$GNVLW,,N,,N,0.000,N,0.000,N*44
$IIHDT,323.6,T*26
!AIVDO,1,1,,,B3KK;SP008IPD4`Wp`wQ2RFQl000,0*57
$IIHDT,323.6,T*26
$IIHDT,323.6,T*26
$IIHDT,323.6,T*26
$GNGGA,165546.00,6016.83353,N,02217.19133,E,1,12,0.51,2.3,M,18.6,M,,*4E
$IIHDT,323.6,T*26
$GNDTM,W84,,0.0,N,0.0,E,0.0,W84*71
$GNRMC,165546.00,A,6016.83270,N,02217.19545,E,0.009,,150126,9.20,E,D,V*49
$GNVTG,,T,,M,0.009,N,0.017,K,D*37
$GNGNS,165546.00,6016.83270,N,02217.19545,E,DDDDNN,32,0.46,7.2,18.6,,,V*1B
$GNGGA,165546.00,6016.83270,N,02217.19545,E,2,12,0.46,7.2,M,18.6,M,,*4A
$GNGSA,A,3,10,15,27,07,29,16,26,18,05,23,,,0.87,0.46,0.73,1*0A
$GNGSA,A,3,85,86,76,87,69,77,78,,,,,,0.87,0.46,0.73,2*06
$GNGSA,A,3,05,27,21,15,09,23,13,,,,,,0.87,0.46,0.73,3*07
$GNGSA,A,3,44,24,25,08,13,38,35,05,,,,,0.87,0.46,0.73,4*0E
$GNGSA,A,3,,,,,,,,,,,,,0.87,0.46,0.73,5*0C
$GPGSV,4,1,13,05,16,036,32,07,15,338,40,10,11,177,39,15,16,086,31,1*6F
$GPGSV,4,2,13,16,57,249,44,18,71,098,44,23,40,150,46,26,37,203,43,1*61
$GPGSV,4,3,13,27,40,281,35,29,12,110,27,36,22,179,43,40,16,144,29,1*64
$GPGSV,4,4,13,49,20,200,40,1*5F
$GLGSV,3,1,09,69,22,011,33,70,34,068,44,71,09,125,37,76,33,211,48,1*70
$GLGSV,3,2,09,77,52,278,41,78,17,339,40,85,25,071,40,86,86,342,47,1*75
$GLGSV,3,3,09,87,44,259,45,1*41
$GAGSV,2,1,08,05,15,039,32,09,10,349,35,13,60,210,38,15,57,074,39,7*71
$GAGSV,2,2,08,21,61,236,41,23,31,307,42,27,27,170,42,34,08,057,26,7*75
$GBGSV,3,1,09,05,15,139,32,08,51,064,38,13,54,083,35,24,30,233,41,1*7F
$GBGSV,3,2,09,25,32,302,39,26,03,196,35,35,50,096,33,38,39,049,44,1*7C
$GBGSV,3,3,09,44,76,233,46,1*4E
$GQGSV,1,1,00,0*64
$GNGLL,6016.83270,N,02217.19545,E,165546.00,A,D*72
$GNGRS,165546.00,1,-1.5,-0.4,3.6,-0.4,-34.3,0.6,0.9,-0.8,-3.2,0.4,,,1,1*62
$GNGRS,165546.00,1,-1.6,1.6,-0.8,2.2,0.4,-3.4,4.0,,,,,,2,1*5A
$GNGRS,165546.00,1,-5.4,-0.2,-0.9,2.6,-2.6,-0.6,-0.3,,,,,,3,7*70
$GNGRS,165546.00,1,-2.1,1.4,0.0,-1.5,0.1,0.1,2.0,-1.2,,,,,4,1*7E
$GNGRS,165546.00,1,,,,,,,,,,,,,5,0*50
$GNGST,165546.00,12,0.94,0.81,101,0.33,0.38,0.75*42
$GNZDA,165546.00,15,01,2026,00,00*7E
$GNGBS,165546.00,0.3,0.4,0.8,,,,,,*55
$GNTHS,,A*07
$GNVLW,,N,,N,0.000,N,0.000,N*44
$IIHDT,323.6,T*26
!AIVDO,1,1,,,B3KK;SP008IPD4`Wp`wQ2RG1l000,0*36
$IIHDT,323.5,T*25
$IIHDT,323.6,T*26
$IIHDT,323.6,T*26
$AIALR,,001,V,V,AIS: Tx malfunction*65
$AIALR,,002,V,V,AIS: Antenna VSWR exceeds limit*6B
